{"type":"FeatureCollection","features":[{"type":"Feature","properties":{"label":"Oxford Market"},"geometry":{"coordinates":[-0.13961283763234178,51.516353666719624],"type":"Point"},"id":0},{"type":"Feature","properties":{"label":"Marlborough Mews"},"geometry":{"coordinates":[-0.13961923928735587,51.51489350253786],"type":"Point"},"id":1},{"type":"Feature","properties":{"label":"Castle Street"},"geometry":{"coordinates":[-0.13776782743133253,51.516634848554816],"type":"Point"}},{"type":"Feature","properties":{"label":"Berners Street"},"geometry":{"coordinates":[-0.1359039693205375,51.51608364807291],"type":"Point"}},{"type":"Feature","properties":{"label":"Newman Street"},"geometry":{"coordinates":[-0.13471786229652594,51.51627570648105],"type":"Point"}},{"type":"Feature","properties":{"label":"Carnaby Street"},"geometry":{"coordinates":[-0.13951130407104984,51.51385110285932],"type":"Point"}},{"type":"Feature","properties":{"label":"Broad Street"},"geometry":{"coordinates":[-0.13661071375091183,51.51332670646113],"type":"Point"}},{"type":"Feature","properties":{"label":"King Street"},"geometry":{"coordinates":[-0.1316492191440375,51.512317622394875],"type":"Point"}},{"type":"Feature","properties":{"label":"Rupert Street"},"geometry":{"coordinates":[-0.1335924192200082,51.512095789091774],"type":"Point"}},{"type":"Feature","properties":{"label":"Bridle Street"},"geometry":{"coordinates":[-0.1359144601182436,51.511502137971604],"type":"Point"}},{"type":"Feature","properties":{"label":"Warwick Street"},"geometry":{"coordinates":[-0.138174594137638,51.51126565741936],"type":"Point"}},{"type":"Feature","properties":{"label":"Vigo Street"},"geometry":{"coordinates":[-0.13953144209691004,51.510152813090684],"type":"Point"}},{"type":"Feature","properties":{"label":"Tichborne Street"},"geometry":{"coordinates":[-0.13399399339076012,51.51005616433872],"type":"Point"}}]}